[
{"id":"1","name":"birzu-ams","cityName":"birzai","latitude":"56.193191","longitude":"24.774184"},
{"id":"2","name":"dotnuvos-ams","cityName":"dotnuva","latitude":"55.395993","longitude":"23.866224"},
{"id":"3","name":"duksto-ams","cityName":"dukstas","latitude":"55.517856","longitude":"26.316140"},
{"id":"4","name":"kauno-ams","cityName":"kaunas","latitude":"54.883960","longitude":"23.835880"},
{"id":"5","name":"klaipedos-ams","cityName":"klaipeda","latitude":"55.731350","longitude":"21.091570"},
{"id":"6","name":"kybartu-ams","cityName":"kybartai","latitude":"54.633167","longitude":"22.783011"},
{"id":"7","name":"laukuvos-ams","cityName":"laukuva","latitude":"55.608860","longitude":"22.239463"},
{"id":"8","name":"lazdiju-ams","cityName":"lazdijai","latitude":"54.232210","longitude":"23.510680"},
{"id":"9","name":"nidos-ams","cityName":"neringa-nida","latitude":"55.302210","longitude":"21.007360"},
{"id":"10","name":"panevezio-ams","cityName":"panevezys","latitude":"55.735154","longitude":"24.417184"},
{"id":"11","name":"raseiniu-ams","cityName":"raseiniai","latitude":"55.394569","longitude":"23.133073"},
{"id":"12","name":"siauliu-ams","cityName":"siauliai","latitude":"55.942222","longitude":"23.331111"},
{"id":"13","name":"silutes-ams","cityName":"silute","latitude":"55.352222","longitude":"21.446944"},
{"id":"14","name":"telsiu-ams","cityName":"telsiai","latitude":"55.991245","longitude":"22.256657"},
{"id":"15","name":"ukmerges-ams","cityName":"ukmerge","latitude":"55.264145","longitude":"24.760335"},
{"id":"16","name":"utenos-ams","cityName":"utena","latitude":"55.515321","longitude":"25.589692"},
{"id":"17","name":"varenos-ams","cityName":"varena","latitude":"54.248271","longitude":"24.551760"},
{"id":"18","name":"vilniaus-ams","cityName":"vilnius","latitude":"54.625992","longitude":"25.107064"}
]